City_ID,City,Lat,Lng,Max Temp,Humidity,Cloudiness,Wind Speed,Country,Date
0,jamestown,42.097,-79.2353,0.8,55,100,3.6,US,1741058408
1,holualoa,19.6228,-155.9522,24.91,70,100,3.6,US,1741058569
2,lompoc,34.6391,-120.4579,10.94,82,0,7.2,US,1741058570
3,kyshtovka,56.555,76.6271,-16.91,93,100,0.78,RU,1741058571
4,thunder bay,48.4001,-89.3168,-3.01,86,100,0.51,CA,1741058309
5,thakurgaon,26.0333,88.4667,22.28,18,4,0.78,BD,1741058574
6,vredendal,-31.6683,18.5012,19.85,82,80,2.04,ZA,1741058576
7,port augusta,-32.5,137.7667,34.3,10,0,2.85,AU,1741058577
8,blackmans bay,-43.0167,147.3167,25.85,52,29,2.29,AU,1741058578
9,papatowai,-46.5619,169.4708,13.97,87,50,6.54,NZ,1741058580
10,flying fish cove,-10.4217,105.6791,29.82,79,51,4.63,CX,1741058581
11,karratha,-20.7377,116.8463,36.94,38,3,3.22,AU,1741058582
12,ust'-uda,54.1742,103.0304,-7.78,91,98,1.33,RU,1741058584
13,uturoa,-16.7333,-151.4333,28.2,71,36,1.39,PF,1741058585
14,georgetown,5.4112,100.3354,31.96,70,20,4.12,MY,1741058586
15,grytviken,-54.2811,-36.5092,8.35,95,100,5.81,GS,1741058587
16,acapulco de juarez,16.8634,-99.8901,26.9,69,20,4.63,MX,1741058588
17,chinde,26.8212,87.7095,23.03,25,4,1.9,NP,1741058590
18,whitehorse,60.7161,-135.0538,-0.57,74,75,3.6,CA,1741058591
19,tura,25.5198,90.2201,25.61,23,8,2.02,IN,1741058332
20,bijie,27.3125,105.2942,7.76,93,100,2.5,CN,1741058593
21,yellowknife,62.456,-114.3525,-8.71,79,75,3.09,CA,1741058560
22,wailua homesteads,22.0669,-159.378,25.44,75,40,6.69,US,1741058596
23,prince rupert,54.3161,-130.3201,6.83,86,0,2.06,CA,1741058597
24,waitangi,-43.9535,-176.5597,14.9,92,100,3.13,NZ,1741058598
25,puerto natales,-51.7236,-72.4875,4.07,95,92,1.15,CL,1741058599
26,kapuskasing,49.4169,-82.4331,-0.95,80,100,4.12,CA,1741058600
27,adamstown,-25.066,-130.1015,25.67,71,3,5.24,PN,1741058602
28,namibe,-15.1961,12.1522,22.91,80,94,1.47,AO,1741058603
29,iskateley,67.6803,53.1512,-5.01,94,100,5.99,RU,1741058604
30,ancud,-41.8697,-73.8203,14.14,79,100,7.59,CL,1741058605
31,port-aux-francais,-49.35,70.2167,4.69,81,79,14.28,TF,1741058606
32,thompson,55.7435,-97.8558,-8.91,79,100,6.69,CA,1741058354
33,keflavik,64.0049,-22.5624,7.24,81,75,12.86,IS,1741058609
34,mersing,2.4312,103.8405,30.95,74,40,2.57,MY,1741058610
35,khorinsk,52.1657,109.7726,-9.19,78,61,1.23,RU,1741058611
36,aasiaat,68.7098,-52.8699,-22.53,99,66,4.68,GL,1741058612
37,zhigalovo,54.8097,105.1578,-5.15,87,98,1.58,RU,1741058614
38,lorengau,-2.0226,147.2712,29.15,75,56,4.98,PG,1741058615
39,havre,49.5833,0.3333,2.22,93,27,1.54,FR,1741058616
40,caleta de carquin,-11.0925,-77.6267,24.19,79,95,5.06,PE,1741058617
41,invercargill,-46.4,168.35,12.79,89,74,7.6,NZ,1741058619
42,bethel,41.3712,-73.414,-1.88,69,0,0.89,US,1741058333
43,saipan,15.1355,145.701,31.39,58,20,9.77,MP,1741058621
44,enewetak,11.3474,162.3373,27.09,73,21,8.26,MH,1741058623
45,badger,64.8,-147.5333,0.0,71,40,1.54,US,1741058625
46,iqaluit,63.7506,-68.5145,-28.15,69,75,3.09,CA,1741058626
47,yorkton,51.2167,-102.4677,-0.09,80,100,4.63,CA,1741058627
48,stanley,54.868,-1.6985,5.29,89,60,2.78,GB,1741058628
49,hamilton,39.1834,-84.5333,4.94,48,22,1.34,US,1741058629
50,qaqortoq,60.7167,-46.0333,-24.18,81,3,2.04,GL,1741058632
51,san antonio de pale,-1.4014,5.6325,27.59,74,100,0.69,GQ,1741058633
52,port alfred,-33.5906,26.891,24.27,80,88,3.29,ZA,1741058634
53,atafu village,-8.5421,-172.5159,28.58,70,46,5.58,TK,1741058635
54,ribeira grande,38.5167,-28.7,12.65,89,100,0.89,PT,1741058637
55,happy valley-goose bay,53.3168,-60.3315,-17.83,78,75,4.63,CA,1741058638
56,sinop,41.7711,34.8709,-4.07,93,70,1.68,TR,1741058639
57,edinburgh of the seven seas,-37.0676,-12.3116,13.87,65,47,11.21,SH,1741058640
58,labytnangi,66.6572,66.4183,-21.41,100,100,0.91,RU,1741058642
59,igarka,67.4667,86.5833,-20.61,97,100,4.4,RU,1741058643
60,tolanaro,-25.0319,46.9987,25.04,88,40,4.12,MG,1741058644
61,port mathurin,-19.6833,63.4167,27.44,73,30,6.47,MU,1741058645
62,vernon,50.2581,-119.2691,4.74,70,91,2.06,CA,1741058647
63,tofol,5.3248,163.0078,26.88,89,100,3.09,FM,1741058648
64,hermanus,-34.4187,19.2345,22.11,94,56,2.78,ZA,1741058649
65,olonkinbyen,70.9221,-8.7187,-1.47,83,93,3.02,SJ,1741058652
66,chonchi,-42.6128,-73.8092,14.51,79,100,4.35,CL,1741058653
67,lazaro cardenas,17.9583,-102.2,23.81,75,83,2.51,MX,1741058654
68,tiksi,71.6872,128.8694,-30.46,100,76,0.42,RU,1741058655
69,port-gentil,-0.7193,8.7815,25.3,87,100,8.35,GA,1741058656
70,gumdag,39.2061,54.5906,1.47,60,100,9.1,TM,1741058658
71,ditrau,46.8167,25.5167,-1.89,88,6,1.22,RO,1741058659
72,sao joao da barra,-21.6403,-41.0511,24.73,84,5,4.34,BR,1741058660
73,ushuaia,-54.8,-68.3,7.81,49,0,3.09,AR,1741058402
74,revda,56.801,59.9303,-15.42,99,96,1.36,RU,1741058662
75,anna regina,7.2644,-58.5077,24.83,89,80,3.71,GY,1741058664
76,avarua,-21.2078,-159.775,25.03,88,100,2.57,CK,1741058665
77,lae,-6.7221,146.9847,25.44,81,100,1.83,PG,1741058666
78,campbell river,50.0163,-125.2446,8.11,93,75,0.0,CA,1741058667
79,margaret river,-33.95,115.0667,19.56,44,1,6.68,AU,1741058668
80,hammerfest,70.6634,23.6821,-0.75,93,100,2.57,NO,1741058670
81,cabo san lucas,22.8909,-109.9124,24.17,43,20,2.06,MX,1741058590
82,puerto ayora,-0.7393,-90.3518,25.86,97,100,1.41,EC,1741058673
83,maasin,10.1336,124.8447,27.32,77,99,2.0,PH,1741058675
84,katsuren-haebaru,26.3369,127.8719,23.43,79,75,1.54,JP,1741058676
85,hawaiian paradise park,19.5933,-154.9731,25.73,72,0,4.63,US,1741058677
86,tommot,58.9564,126.2925,-21.2,88,100,2.92,RU,1741058678
87,rudbar,30.15,62.6,6.42,19,0,1.81,AF,1741058679
88,kruisfontein,-34.0033,24.7314,22.17,72,100,3.18,ZA,1741058681
89,nimbahera,24.6167,74.6833,21.21,24,0,5.76,IN,1741058682
90,taltal,-25.4,-70.4833,19.01,80,11,0.93,CL,1741058683
91,puerto baquerizo moreno,-0.9,-89.6,26.42,81,99,3.02,EC,1741058684
92,tromso,69.6496,18.957,0.01,93,75,1.03,NO,1741058657
93,west island,-12.1568,96.8225,28.99,79,40,6.69,CC,1741058687
94,vilyuchinsk,52.9306,158.4028,0.15,76,91,4.7,RU,1741058688
95,susuman,62.7833,148.1667,-24.6,83,100,3.05,RU,1741058689
96,lethem,3.3803,-59.7968,27.31,64,35,5.5,GY,1741058690
97,isafjordur,66.0755,-23.124,-1.67,96,100,7.55,IS,1741058693
98,gao,16.6362,1.637,26.75,11,83,5.4,ML,1741058694
99,albany,42.6001,-73.9662,-5.12,71,29,1.25,US,1741058589
100,island harbour,50.724,-1.2758,1.52,83,1,1.73,GB,1741058696
101,kavieng,-2.5744,150.7967,29.02,72,65,5.09,PG,1741058698
102,puerto leguizamo,-0.1934,-74.7819,23.01,97,100,0.22,CO,1741058699
103,inarajan village,13.2736,144.7484,30.55,82,11,8.82,GU,1741058700
104,vorkuta,67.5,64.0,-10.1,97,100,2.7,RU,1741058701
105,brookings,44.3114,-96.7984,9.54,74,100,4.63,US,1741058702
106,vorgashor,67.5833,63.95,-10.02,97,100,2.9,RU,1741058704
107,niamey,13.5137,2.1098,27.16,24,7,2.06,NE,1741058705
108,kodiak,57.79,-152.4072,3.73,100,100,6.17,US,1741058706
109,nadym,65.5333,72.5167,-19.31,100,96,3.63,RU,1741058708
110,ouesso,1.6136,16.0517,22.04,91,72,1.02,CG,1741058709
111,barcelos,41.5388,-8.6151,9.67,83,96,2.61,PT,1741058710
112,valparaiso,-33.0393,-71.6273,19.15,72,0,1.54,CL,1741058695
113,hirara,24.8,125.2833,23.92,83,75,6.69,JP,1741058712
114,galesong,-5.3166,119.3661,28.96,72,98,1.43,ID,1741058714
115,rouissat,31.9243,5.3502,15.04,67,0,4.63,DZ,1741058715
116,edeia,-17.3383,-49.9314,21.49,78,96,1.61,BR,1741058716
117,newman,37.3138,-121.0208,11.7,68,75,0.45,US,1741058717
118,manokwari,-0.8667,134.0833,29.19,69,96,3.45,ID,1741058718
119,mount gambier,-37.8333,140.7667,31.49,9,0,1.49,AU,1741058720
120,belmonte,-15.8631,-38.8828,23.99,88,83,2.98,BR,1741058721
121,shimoda,34.6667,138.95,6.43,73,100,8.74,JP,1741058722
122,udachny,66.4167,112.4,-32.31,88,54,1.06,RU,1741058723
123,polyarnyy,69.1989,33.4478,-4.15,90,100,3.55,RU,1741058724
124,st. john's,47.5649,-52.7093,-4.69,76,75,2.57,CA,1741058516
125,otawara,36.8667,140.0333,4.03,52,96,2.05,JP,1741058727
126,nova xavantina,-14.6667,-52.35,22.96,91,100,1.11,BR,1741058728
127,longyearbyen,78.2186,15.6401,-8.09,67,20,8.23,SJ,1741058729
128,al jawf,29.5,38.75,15.63,14,100,4.61,SA,1741058730
129,codrington,-38.2667,141.9667,28.83,25,0,4.09,AU,1741058732
130,dudinka,69.4058,86.1778,-24.3,98,100,2.49,RU,1741058733
131,minas de marcona,-15.2119,-75.1103,18.03,82,31,5.11,PE,1741058734
132,hawera,-39.5917,174.2833,19.3,81,100,6.21,NZ,1741058735
133,kingston,17.997,-76.7936,25.53,78,20,2.57,JM,1741058736
134,drezna,55.7458,38.8497,-0.48,98,100,2.87,RU,1741058738
135,bredasdorp,-34.5322,20.0403,21.22,87,8,3.18,ZA,1741058739
136,nichinan,31.6,131.3667,12.66,94,100,4.86,JP,1741058740
137,plouzane,48.3833,-4.6167,4.03,100,0,3.6,FR,1741058741
138,rochford,51.582,0.7067,3.47,85,22,0.45,GB,1741058743
139,ola,59.5833,151.2833,-16.15,76,100,5.94,RU,1741058744
140,la passe,45.5549,-0.8967,7.77,80,88,3.13,FR,1741058745
141,yatou,37.15,122.3833,1.69,98,100,4.41,CN,1741058746
142,petropavlovsk-kamchatsky,53.0452,158.6483,-0.67,43,40,4.0,RU,1741058747
143,nuku'alofa,-21.1333,-175.2,29.19,79,40,6.69,TO,1741058749
144,hlusk,52.903,28.6845,3.49,78,74,7.52,BY,1741058750
145,argostolion,38.1811,20.489,8.19,60,16,4.61,GR,1741058751
146,pyhaselka,62.4333,29.9667,-1.8,91,84,4.44,FI,1741058752
147,jiangyou,31.7667,104.7167,10.82,79,100,1.33,CN,1741058753
148,conception bay south,47.4999,-52.9981,-4.82,77,100,4.28,CA,1741058755
149,rouyn-noranda,48.2398,-79.0288,-3.95,93,100,4.12,CA,1741058756
150,axim,4.8699,-2.2405,26.82,87,95,3.23,GH,1741058757
151,college,64.8569,-147.8028,-0.51,69,75,1.54,US,1741058758
152,el haouaria,37.05,11.0144,13.01,91,100,3.6,TN,1741058645
153,salaqi,40.5414,110.5108,-0.7,87,36,1.34,CN,1741058761
154,talnakh,69.4865,88.3972,-27.25,81,98,3.74,RU,1741058762
155,lagos,6.5833,3.75,27.14,88,99,2.69,NG,1741058640
156,puerto santa,-8.9906,-78.6456,23.96,81,100,3.68,PE,1741058764
157,cruzeiro do sul,-29.5128,-51.9853,28.07,93,0,0.65,BR,1741058765
158,yuzhno-kurilsk,44.0306,145.8556,-4.76,59,100,0.56,RU,1741058767
159,bilibino,68.0546,166.4372,-26.53,93,8,0.35,RU,1741058768
160,ebon,4.582,168.6964,28.04,70,27,8.58,MH,1741058769
161,kudat,6.8837,116.8477,29.96,84,20,2.57,MY,1741058770
162,ilulissat,69.2167,-51.1,-26.51,96,98,4.03,GL,1741058772
163,svay rieng,11.0879,105.7993,30.56,54,94,3.92,KH,1741058774
164,ust-nera,64.5667,143.2,-22.85,91,100,3.11,RU,1741058775
165,walvis bay,-22.9575,14.5053,16.53,100,68,3.09,NA,1741058597
166,hithadhoo,-0.6,73.0833,28.04,75,98,3.82,MV,1741058778
167,cocal,-28.6167,-49.35,22.04,87,0,1.01,BR,1741058779
168,anadyr,64.75,177.4833,-25.56,75,20,6.0,RU,1741058780
169,tazovsky,67.4667,78.7,-16.75,97,100,2.83,RU,1741058781
170,lihue,21.9789,-159.3672,25.77,65,40,6.69,US,1741058782
171,la condamine,43.7344,7.4202,13.01,39,24,3.11,MC,1741058784
172,port lincoln,-34.7333,135.8667,26.44,45,0,4.41,AU,1741058785
173,sisimiut,66.9395,-53.6735,-23.28,96,95,0.93,GL,1741058786
174,laguna,38.421,-121.4238,13.31,69,0,3.09,US,1741058787
175,rongelap,11.1635,166.8941,26.97,75,0,8.64,MH,1741058789
176,puerto deseado,-47.7503,-65.8938,16.49,38,36,7.93,AR,1741058790
177,derbent,42.0678,48.2899,3.65,68,99,7.59,RU,1741058791
178,minas de matahambre,22.5887,-83.9447,19.26,69,2,2.97,CU,1741058792
179,ryotsu-minato,38.0833,138.4333,3.35,61,99,6.64,JP,1741058795
180,klyuchi,52.2667,79.1667,-9.23,92,100,2.63,RU,1741058796
181,singaraja,-8.112,115.0882,29.65,71,75,2.11,ID,1741058797
182,cheremushki,52.8356,91.3944,-3.6,79,29,0.88,RU,1741058798
183,port-saint-louis-du-rhone,43.3833,4.8,6.13,75,0,3.09,FR,1741058801
184,cidreira,-30.1811,-50.2056,25.05,87,0,7.95,BR,1741058802
185,madang,-5.2246,145.7966,30.56,65,98,3.29,PG,1741058803
186,balkashino,52.5167,68.7667,-18.46,95,100,3.48,KZ,1741058806
187,tsuma,32.1,131.4,12.97,97,100,1.68,JP,1741058807
188,bamboo flat,11.7,92.7167,29.05,61,20,1.03,IN,1741058808
189,san patricio,28.017,-97.5169,22.97,85,36,8.23,US,1741058809
190,cerkezkoy,41.285,28.0003,-0.9,93,0,3.6,TR,1741058810
191,hohhot,40.8106,111.6522,-0.84,93,40,3.0,CN,1741058813
192,egilsstadir,65.2653,-14.3948,1.95,69,100,3.6,IS,1741058814
193,suharau,48.1333,26.4167,0.26,86,8,3.0,RO,1741058815
194,afaahiti,-17.75,-149.2833,26.71,76,79,1.43,PF,1741058816
195,broken hill,-31.95,141.4333,32.26,15,0,2.78,AU,1741058818
196,isoka,-10.1606,32.6335,16.03,97,99,0.7,ZM,1741058819
197,scarborough,54.2797,-0.4044,5.65,36,10,1.34,GB,1741058820
198,san carlos del zulia,9.0,-71.9135,25.54,78,100,2.1,VE,1741058822
199,punta arenas,-53.15,-70.9167,7.06,76,40,3.6,CL,1741058746
200,turtas,58.9417,69.1325,-11.76,93,100,1.88,RU,1741058743
201,ararat,39.8317,44.7049,-0.37,67,100,2.24,AM,1741058825
202,dullewala,31.8359,71.4362,13.37,67,0,5.99,PK,1741058826
203,carcarana,-32.8568,-61.1533,24.89,92,61,4.4,AR,1741058828
204,saint-pierre,-21.3393,55.4781,26.82,65,20,2.57,RE,1741058829
205,yaren,-0.5472,166.916,27.05,75,98,6.04,NR,1741058830
206,caburan,5.9181,125.6411,27.5,73,95,4.92,PH,1741058831
207,lata,40.1629,-8.3327,5.73,96,66,2.09,PT,1741058832
208,waingapu,-9.6567,120.2641,30.48,72,24,5.07,ID,1741058834
209,mana,5.6592,-53.7767,24.63,88,58,4.34,GF,1741058835
210,berezovyy,51.6667,135.7,-9.08,57,0,1.57,RU,1741058836
211,marat,25.0701,45.4615,13.34,39,100,5.42,SA,1741058702
212,malango,-2.9627,119.9001,24.71,83,100,0.87,ID,1741058838
213,princeville,45.7668,-61.2985,-10.17,82,0,1.54,CA,1741058840
214,nagqu,31.5,92.0,1.66,7,0,8.67,CN,1741058841
215,hun,29.1268,15.9477,11.09,94,0,3.45,LY,1741058842
216,nouadhibou,20.931,-17.0347,16.99,88,66,1.03,MR,1741058843
217,margate,51.3813,1.3862,4.73,72,9,0.43,GB,1741058565
218,mount isa,-20.7333,139.5,39.87,18,0,2.06,AU,1741058846
219,saint croix,17.7397,-64.7388,23.86,87,0,2.06,VI,1741058847
220,bubaque,11.2833,-15.8333,23.74,65,77,7.86,GW,1741058848
221,nogliki,51.8333,143.1667,-13.3,64,47,7.39,RU,1741058849
222,nemuro,43.3236,145.575,-3.29,49,65,8.85,JP,1741058851
223,guatrache,-37.6678,-63.5302,21.03,84,96,2.47,AR,1741058852
224,graaff-reinet,-32.2522,24.5308,22.72,58,61,2.1,ZA,1741058853
225,port hedland,-20.3167,118.5667,36.03,52,9,3.6,AU,1741058854
226,sydney,-33.8679,151.2073,26.86,66,40,7.2,AU,1741058048
227,rebrikha,53.0733,82.3408,-10.68,97,100,2.25,RU,1741058857
228,ulladulla,-35.35,150.4667,22.33,56,14,4.59,AU,1741058858
229,palembang,-2.9167,104.7458,28.05,89,40,2.06,ID,1741058859
230,mariehamn,60.0973,19.9348,4.92,70,0,4.63,AX,1741058860
231,fort bragg,35.139,-79.006,8.23,54,0,0.89,US,1741058839
232,bollnas,61.3482,16.3946,2.35,86,100,3.28,SE,1741058863
233,beau vallon,-20.4189,57.6953,26.13,94,40,4.12,MU,1741058864
234,puerto carreno,6.189,-67.4859,29.41,47,56,1.79,CO,1741058865
235,rioja,-29.4111,-66.8507,30.79,51,89,2.65,AR,1741058866
236,midvagur,62.0511,-7.1939,7.46,87,100,6.69,FO,1741058868
237,sao vicente,-23.9631,-46.3919,25.55,26,19,1.01,BR,1741058717
238,tual,-5.6667,132.75,28.06,73,67,1.15,ID,1741058870
239,mil'kovo,55.6078,37.7956,1.46,63,100,5.11,RU,1741058871
240,vallenar,-28.5708,-70.7581,21.44,57,0,1.49,CL,1741058873
241,luderitz,-26.6481,15.1594,16.28,93,0,3.39,NA,1741058874
242,dunedin,-45.8742,170.5036,14.33,77,72,2.24,NZ,1741058590
243,kete krachi,7.7939,-0.0498,28.14,77,100,5.27,GH,1741058876
244,alofi,-19.0595,-169.9187,26.94,83,75,3.6,NU,1741058877
245,freetown,8.484,-13.2299,26.84,78,40,5.66,SL,1741058879
246,la junta,37.985,-103.5438,9.16,29,100,10.29,US,1741058880
247,dubrovka,53.6907,33.5071,0.93,89,100,7.23,RU,1741058881
248,utrik,11.2278,169.8474,26.99,77,2,9.41,MH,1741058882
249,harpanahalli,14.8,75.9833,26.96,31,100,2.79,IN,1741058883
250,mirpur sakro,24.5474,67.6277,19.5,15,13,3.3,PK,1741058642
251,arkhangel'sk,64.5401,40.5433,0.06,80,100,5.0,RU,1741058886
252,vadso,70.0744,29.7487,-0.91,93,100,1.54,NO,1741058887
253,pingliang,35.5392,106.6861,1.39,71,70,2.41,CN,1741058888
254,takoradi,4.8845,-1.7554,26.78,87,80,3.32,GH,1741058889
255,vytegra,61.0064,36.4481,0.86,98,100,4.84,RU,1741058891
256,barra de santo antonio,-9.4047,-35.5072,25.89,74,7,3.22,BR,1741058892
257,yerofey pavlovich,53.9667,121.9667,-10.66,80,79,1.48,RU,1741058893
258,piacabucu,-10.4056,-36.4344,25.05,82,10,2.93,BR,1741058894
259,myskhako,44.6714,37.7433,0.26,72,41,0.79,RU,1741058897
260,lucea,18.451,-78.1736,25.92,79,1,2.57,JM,1741058898
261,zemio,5.0314,25.1361,24.17,36,92,0.6,CF,1741058899
262,tsiombe,-25.3,45.4833,23.08,96,5,2.02,MG,1741058900
263,negara,-8.3151,114.6025,29.58,68,100,1.25,ID,1741058902
264,sirjan,29.452,55.6814,4.75,22,3,4.23,IR,1741058903
265,la'ie,21.6477,-157.9253,26.66,75,26,2.68,US,1741058904
266,constitucion,-35.3333,-72.4167,13.82,87,3,3.16,CL,1741058905
267,hobyo,5.3505,48.5268,25.41,81,6,7.09,SO,1741058906
268,hadibu,12.65,54.0333,23.98,79,0,5.09,YE,1741058908
269,huejutla de reyes,21.1333,-98.4167,21.87,90,42,2.26,MX,1741058909
270,dalbandin,28.8947,64.4101,8.04,21,0,2.58,PK,1741058910
271,alghero,40.5589,8.3181,10.54,93,48,2.57,IT,1741058911
272,inyonga,-6.7167,32.0667,16.79,93,96,1.23,TZ,1741058913
273,sabang,5.8933,95.3214,27.8,76,86,2.59,ID,1741058915
274,tamanrasset,22.785,5.5228,18.95,12,0,5.66,DZ,1741058916
275,cangucu,-31.395,-52.6756,22.98,83,25,2.1,BR,1741058917
276,akureyri,65.6835,-18.0878,-2.53,97,100,2.71,IS,1741058919
277,maluso,6.543,121.8753,29.03,72,82,2.07,PH,1741058920
278,el bordo,2.117,-76.9821,20.4,95,99,1.02,CO,1741058921
279,queenstown,-31.8976,26.8753,18.33,69,14,2.26,ZA,1741058774
280,papao,-17.75,-149.55,30.82,77,92,1.28,PF,1741058923
281,mahanoro,-19.9,48.8,25.86,94,42,3.69,MG,1741058925
282,nieuw nickerie,5.95,-56.9833,25.44,84,9,4.83,SR,1741058926
283,amursk,50.2261,136.8994,-15.72,82,100,4.58,RU,1741058927
284,ain oussera,35.4514,2.9058,12.44,63,46,6.31,DZ,1741058928
285,mungwi,-10.1732,31.3694,16.87,93,100,0.87,ZM,1741058930
286,mossel bay,-34.1831,22.146,19.96,84,14,4.69,ZA,1741058931
287,tucumcari,35.1717,-103.725,8.91,14,0,9.26,US,1741058932
288,kitui,-1.367,38.0106,15.85,96,14,1.24,KE,1741058933
289,mugia,43.1041,-9.2179,9.95,85,0,6.75,ES,1741058934
290,east london,-33.0153,27.9116,22.52,83,0,0.51,ZA,1741058712
291,fort mcmurray,56.7268,-111.381,-0.23,74,100,1.54,CA,1741058937
292,tarfaya,27.9358,-12.9218,16.9,79,0,1.38,MA,1741058938
293,wau,7.7029,27.9953,25.72,20,11,1.68,SS,1741058939
294,live oak,36.9836,-121.9805,11.1,78,0,3.09,US,1741058940
295,sault ste. marie,46.5168,-84.3333,-1.84,64,0,1.54,CA,1741058758
296,kamina,-8.7386,24.9906,17.75,95,100,1.35,CD,1741058943
297,pamplona,42.8169,-1.6432,8.95,87,100,2.57,ES,1741058731
298,siracusa,37.0881,15.2792,9.62,86,96,0.89,IT,1741058945
299,sidi khaled,34.387,4.9879,12.94,72,46,4.08,DZ,1741058946
300,sur,22.5667,59.5289,21.12,48,0,6.01,OM,1741058948
301,coahuayana de hidalgo,18.7,-103.6583,20.57,87,58,0.84,MX,1741058949
302,port elizabeth,-33.918,25.5701,22.95,92,0,1.03,ZA,1741058950
303,san antonio,29.4241,-98.4936,23.29,80,100,7.2,US,1741058933
304,nizhneudinsk,54.9076,99.0276,-4.83,83,99,1.34,RU,1741058952
305,hinton,53.4001,-117.5857,-6.58,97,65,1.04,CA,1741058954
306,puttalam,8.0362,79.8283,25.74,83,100,4.95,LK,1741058955
307,mkushi,-13.6202,29.3939,16.68,98,100,1.26,ZM,1741058956
308,pisco,-13.7,-76.2167,23.03,83,40,4.63,PE,1741058957
309,usinsk,65.9939,57.5281,-7.4,93,100,7.31,RU,1741058959
310,jingdezhen,29.2947,117.2079,8.2,78,100,2.14,CN,1741058960
311,carauari,-4.8828,-66.8958,22.61,98,100,0.92,BR,1741058961
312,new kingman-butler,35.265,-114.0323,7.09,49,0,2.57,US,1741058962
313,rafah,31.287,34.2595,15.35,72,100,3.95,PS,1741058963
314,quezon,7.7303,125.0989,30.49,57,50,2.69,PH,1741058965
315,haifa,32.8156,34.9892,14.52,77,0,1.03,IL,1741058966
316,kone,-21.0595,164.8658,30.84,67,96,2.0,NC,1741058967
317,chibougamau,49.9168,-74.3659,-10.21,92,100,3.6,CA,1741058968
318,volkhov,59.9258,32.3382,0.48,92,100,3.11,RU,1741058969
319,fisterra,42.9049,-9.2629,11.16,79,2,6.25,ES,1741058971
320,severo-yeniseyskiy,60.3725,93.0408,-8.96,93,100,2.32,RU,1741058972
321,puerto aysen,-45.4,-72.7,10.25,98,100,1.79,CL,1741058973
322,lake monticello,37.9232,-78.3347,1.53,60,3,1.3,US,1741058974
323,saint-joseph,-21.3667,55.6167,26.21,78,21,3.69,RE,1741058976
324,acarau,-2.8856,-40.12,25.03,90,95,2.76,BR,1741058977
325,basco,20.4487,121.9702,26.01,85,26,4.88,PH,1741058978
326,el abadia,36.2695,1.6861,13.92,56,100,3.64,DZ,1741058979
327,camayenne,9.535,-13.6878,25.66,73,37,6.61,GN,1741058980
328,phang nga,8.4509,98.5298,31.87,50,96,0.54,TH,1741058983
329,ludwigslust,53.3167,11.5,1.66,92,100,2.73,DE,1741058984
330,nieuw amsterdam,5.8833,-55.0833,24.23,89,4,3.95,SR,1741058985
331,champerico,14.3,-91.9167,27.63,67,1,3.47,GT,1741058986
332,alpena,45.0617,-83.4327,1.73,67,0,3.09,US,1741058988
333,tazacorte,28.629,-17.9293,15.54,77,75,6.69,ES,1741058989
334,east haven,41.2762,-72.8684,-1.04,74,11,1.34,US,1741058990
335,fortuna,40.5982,-124.1573,8.88,91,75,1.54,US,1741058992
336,singleton,-32.5667,151.1833,26.66,81,62,0.45,AU,1741058994
337,las heras,-46.5419,-68.9359,13.69,40,74,9.47,AR,1741058995
338,bikenibeu village,1.3673,173.1241,29.98,74,40,6.17,KI,1741058996
339,dazhou,31.2159,107.5009,8.28,80,100,1.21,CN,1741058935
340,zmiyevka,52.6697,36.3739,0.22,97,100,7.45,RU,1741058998
341,yanam,16.7333,82.2167,32.78,40,92,1.44,IN,1741059000
342,mineral wells,32.8085,-98.1128,23.11,64,100,7.72,US,1741058876
343,praia da vitoria,38.7333,-27.0667,12.14,94,40,1.93,PT,1741059002
344,geraldton,-28.7667,114.6,28.23,51,1,9.77,AU,1741058978
345,nikolayevsk-on-amure,53.1406,140.73,-13.94,77,29,6.32,RU,1741059005
346,mogadishu,2.0371,45.3438,25.55,83,53,6.31,SO,1741058878
347,saint-philippe,-21.3585,55.7679,27.2,78,22,4.3,RE,1741059007
348,kavaratti,10.5669,72.642,28.06,76,99,1.58,IN,1741059008
349,nova sintra,14.8667,-24.7167,21.31,65,76,8.6,CV,1741059009
350,formosa do rio preto,-11.0483,-45.1931,25.04,58,64,2.09,BR,1741059011
351,yamada,39.4667,141.95,1.85,43,95,2.85,JP,1741059012
352,kerman,30.2832,57.0788,-4.08,42,0,2.06,IR,1741059013
353,arraial do cabo,-22.9661,-42.0278,24.95,87,0,5.57,BR,1741059014
354,constantia,44.1833,28.65,0.39,79,2,2.81,RO,1741059015
355,bahawalnagar,30.5508,73.3908,16.5,27,1,0.63,PK,1741059017
356,tarinkot,32.6268,65.8733,4.16,31,0,1.89,AF,1741059018
357,isangel,-19.55,169.2667,30.06,70,75,2.57,VU,1741059019
358,fuling,29.7022,107.3919,11.0,90,100,0.88,CN,1741059020
359,auki,-8.7676,160.7034,28.13,79,100,0.99,SB,1741059022
360,road town,18.4167,-64.6167,25.05,77,0,4.97,VG,1741058857
361,carnarvon,-24.8667,113.6333,31.14,45,42,10.84,AU,1741059024
362,saint-felicien,48.6501,-72.4491,-6.62,73,100,7.2,CA,1741059025
363,miles city,46.4083,-105.8406,3.54,87,100,9.26,US,1741059026
364,swakopmund,-22.6833,14.5333,17.75,91,56,1.73,NA,1741059028
365,santa ana de yacuma,-13.75,-65.4333,23.87,94,100,1.13,BO,1741059029
366,sitka,57.0531,-135.33,5.94,75,0,0.0,US,1741059030
367,argo,37.6333,22.7333,7.5,75,51,2.58,GR,1741059031
368,urzhar,47.093,81.6294,-5.05,95,100,1.9,KZ,1741059032
369,gwadar,25.1216,62.3254,18.84,27,0,7.11,PK,1741059034
370,necochea,-38.5473,-58.7368,22.31,87,93,3.17,AR,1741058798
371,haiku-pauwela,20.9219,-156.3051,24.03,75,1,9.83,US,1741059036
372,kristiansund,63.1115,7.732,3.4,93,75,6.17,NO,1741059037
373,jayapura,-2.5333,140.7,33.66,87,89,3.57,ID,1741059038
374,fort st. john,56.2499,-120.8529,-0.06,74,0,3.09,CA,1741059040
375,marsh harbour,26.5412,-77.0636,20.94,68,85,10.4,BS,1741059041
376,devils lake,48.1128,-98.8651,0.99,87,100,7.2,US,1741059042
377,mount pearl,47.5166,-52.7813,-4.82,77,75,2.57,CA,1741059043
378,bayganin,48.6947,55.8742,-9.58,95,100,5.1,KZ,1741059045
379,nanlong,31.3533,106.0631,13.22,58,100,4.07,CN,1741059046
380,zavety il'icha,49.0294,140.2494,-8.6,55,2,3.5,RU,1741059047
381,agua branca,-5.8922,-42.6361,23.0,96,100,0.72,BR,1741059048
382,niafunke,15.9322,-3.9906,27.04,19,56,0.93,ML,1741059049
383,kasane,-17.8167,25.15,20.05,100,0,1.03,BW,1741059051
384,quelimane,-17.8786,36.8883,25.97,89,75,2.06,MZ,1741059052
385,lebu,-37.6167,-73.65,13.61,87,96,0.98,CL,1741059053
386,outjo,-20.1167,16.15,18.8,85,98,0.94,NA,1741059054
387,hasaki,35.7333,140.8333,7.51,55,100,8.28,JP,1741059055
388,prince albert,53.2001,-105.7677,-6.03,79,40,3.6,CA,1741059057
389,morrinhos,-17.7311,-49.0994,19.26,87,83,1.76,BR,1741059058
390,quepos,9.4236,-84.1652,26.14,79,62,0.73,CR,1741059059
391,cockburn town,21.4612,-71.1419,25.4,76,26,9.87,TC,1741059060
392,cozumel,20.5083,-86.9458,23.04,88,0,2.57,MX,1741059002
393,remire-montjoly,4.9167,-52.2667,25.02,94,75,4.63,GF,1741059063
394,aras-asan,8.8908,126.3033,27.39,82,99,2.39,PH,1741059064
395,ben gardane,33.1378,11.2197,13.84,90,51,4.47,TN,1741059065
396,el nido,11.1858,119.3956,28.82,74,17,5.91,PH,1741059066
397,ceeldheer,3.8488,47.1806,25.64,82,9,6.43,SO,1741059067
398,key biscayne,25.6937,-80.1628,22.79,70,20,5.66,US,1741059069
399,pankrushikha,53.8319,80.3406,-9.18,90,100,2.47,RU,1741059070
400,lambarene,-0.7001,10.2406,22.85,96,100,1.64,GA,1741059071
401,kondagaon,19.6,81.6667,30.6,17,67,2.98,IN,1741059072
402,robertsport,6.7533,-11.3686,24.81,83,20,2.11,LR,1741059073
403,zhezqazghan,47.7833,67.7667,-10.68,92,100,7.0,KZ,1741059075
404,taroa,8.7058,171.2275,27.02,73,43,9.03,MH,1741059076
405,volodarskiy,46.4013,48.5409,-2.59,91,98,2.42,RU,1741059077
406,marianske lazne,49.9646,12.7012,-1.19,72,100,0.65,CZ,1741059078
407,crane,31.3974,-102.3501,21.9,3,99,6.78,US,1741059080
408,alice springs,-23.7,133.8833,38.75,11,0,4.63,AU,1741059081
409,paka,4.6374,103.4368,28.96,74,40,0.0,MY,1741059082
410,shalqar,47.8333,59.6,-16.12,95,84,4.13,KZ,1741059085
411,sultanah,24.4926,39.5857,22.25,20,100,5.14,SA,1741059086
412,nybro,56.7446,15.9071,5.45,76,100,7.27,SE,1741059088
413,kununurra,-15.7667,128.7333,37.99,37,1,3.6,AU,1741059089
414,zaozersk,69.4005,32.4476,-7.3,97,100,1.81,RU,1741059090
415,orito,0.6766,-76.8771,21.76,92,100,0.98,CO,1741059092
416,pacific grove,36.6177,-121.9166,11.06,87,75,2.68,US,1741059093
417,newnham,-41.3833,147.1333,23.53,53,75,6.69,AU,1741059094
418,nyagan,62.1406,65.3936,-7.9,97,99,2.42,RU,1741059096
419,yuncos,40.0909,-3.8879,10.79,83,100,5.57,ES,1741059097
420,harstad,68.799,16.5293,1.2,88,100,4.02,NO,1741059099
421,yacuiba,-22.038,-63.6797,23.34,71,43,1.48,BO,1741059100
422,buka,40.8108,69.1986,-2.41,70,15,1.46,UZ,1741058858
423,salaya,22.3167,69.6,23.62,36,55,9.45,IN,1741059102
424,sao jose da coroa grande,-8.8978,-35.1478,25.51,77,0,3.49,BR,1741058867
425,daru,-9.0763,143.2092,29.74,70,99,4.25,PG,1741059105
426,tasqala,51.1167,50.3167,-5.07,94,100,6.11,KZ,1741059106
427,villa gesell,-37.2639,-56.973,21.12,97,100,3.27,AR,1741059107
428,nar'yan-mar,67.6713,53.087,-5.63,93,99,5.83,RU,1741059108
429,osinovo,55.8809,48.881,-6.43,96,99,3.33,RU,1741059110
430,west frankfort,37.8978,-88.9315,12.26,40,0,3.6,US,1741058882
431,vung tau,10.346,107.0843,26.08,80,76,4.79,VN,1741059113
432,camocim,-2.9022,-40.8411,24.91,89,79,2.82,BR,1741059115
433,murray bridge,-35.1167,139.2667,33.25,10,0,2.05,AU,1741059116
434,saint-francois,46.4154,3.9054,-0.74,100,93,1.54,FR,1741059118
435,oroquieta,8.4858,123.8044,29.52,74,98,3.18,PH,1741059119
436,avanigadda,16.0215,80.9181,30.53,35,91,0.62,IN,1741059121
437,baneh,35.9975,45.8853,-2.45,60,100,1.56,IR,1741059122
438,lucapa,-8.4192,20.7447,17.65,92,100,1.62,AO,1741059123
439,miraflores de la sierra,40.8155,-3.7621,5.24,93,100,2.27,ES,1741059124
440,tadine,-21.55,167.8833,27.04,74,87,5.12,NC,1741059125
441,zierenberg,51.3695,9.3016,-0.91,80,100,2.06,DE,1741059128
442,ivins,37.1686,-113.6794,6.64,78,53,2.64,US,1741059129
443,foca,38.6703,26.7566,5.91,70,15,12.49,TR,1741059130
444,fale old settlement,-9.3852,-171.2468,28.52,68,64,4.55,TK,1741059132
445,galeana,24.8333,-100.0667,18.56,21,48,3.34,MX,1741059133
446,east ballina,-28.8667,153.5833,25.34,62,89,8.51,AU,1741059134
447,grabo,57.8363,12.2995,5.94,86,100,7.72,SE,1741059135
448,morant bay,17.8815,-76.4093,24.33,84,1,3.47,JM,1741059137
449,nizhniy odes,63.6445,54.856,-8.49,96,100,3.27,RU,1741059138
450,aral,40.5156,81.2636,5.67,45,100,0.44,CN,1741059139
451,valognes,49.5088,-1.4705,3.66,100,38,2.06,FR,1741059140
452,pamandzi,-12.7967,45.2794,26.88,89,0,1.03,YT,1741059141
453,hanawa,40.1836,140.7872,2.38,46,100,0.44,JP,1741059144
454,punata,-17.55,-65.8333,13.58,83,100,2.27,BO,1741059145
455,las lomitas,-24.7096,-60.593,27.82,47,54,2.27,AR,1741059146
456,dryden,49.7833,-92.7503,3.16,65,75,3.09,CA,1741059148
457,mejit,10.2753,170.8646,27.0,72,27,9.32,MH,1741059149
458,duba,27.3513,35.6901,19.78,48,100,1.59,SA,1741059150
459,hilvan,37.5869,38.9551,5.49,70,75,5.66,TR,1741059151
460,mar del plata,-38.0023,-57.5575,22.27,95,42,1.03,AR,1741059116
461,arar,30.9753,41.0381,10.01,25,20,5.14,SA,1741059154
462,burang,30.25,81.1667,-6.21,83,79,4.61,CN,1741059155
463,geneina,13.45,22.45,21.51,19,6,3.69,SD,1741059156
464,jilin,43.0,126.0,-0.43,25,100,3.78,CN,1741059157
465,sidrolandia,-20.9319,-54.9614,23.94,64,100,1.13,BR,1741059158
466,pangkalanbuun,-2.6833,111.6167,33.91,51,99,0.66,ID,1741059160
467,fort wellington,6.4,-57.6,25.06,86,32,4.6,GY,1741059161
468,lagoa,39.05,-27.9833,13.87,84,73,3.52,PT,1741059163
469,plastun,44.7561,136.2939,-1.19,20,28,1.62,RU,1741059164
470,mabaruma,8.2,-59.7833,23.62,88,69,1.78,GY,1741059166
471,cadale,2.7603,46.3222,26.15,82,25,6.67,SO,1741059167
472,chernyshevskiy,63.0128,112.4714,-28.74,91,59,0.74,RU,1741059168
473,bardai,11.65,7.2333,23.31,24,71,3.98,NG,1741059169
474,malaya purga,56.5567,53.0043,-6.55,95,100,3.87,RU,1741059171
475,eyl,7.9803,49.8164,24.71,77,6,6.98,SO,1741059172
476,milagros,12.2181,123.5095,29.72,69,58,5.47,PH,1741059173
477,howrah,22.5892,88.3103,26.0,50,7,2.57,IN,1741059174
478,north las vegas,36.1989,-115.1175,15.11,33,20,3.09,US,1741059048
479,loango,-4.6719,11.8312,26.81,94,75,2.06,CG,1741059177
480,mezhdurechensk,53.6942,88.0603,-7.2,93,94,0.7,RU,1741059178
481,gadzhiyevo,69.2551,33.3362,-5.11,93,99,2.95,RU,1741059179
482,castillos,-34.1667,-53.8333,22.62,97,6,1.45,UY,1741059181
483,martuk,50.7475,56.5056,-9.45,94,100,4.79,KZ,1741059182
484,funadhoo,6.15,73.2667,28.09,72,19,3.29,MV,1741059183
485,baoqing,46.3317,132.2111,-5.73,50,16,1.66,CN,1741059184
486,greymouth,-42.4667,171.2,17.1,61,22,2.39,NZ,1741059185
487,richards bay,-28.783,32.0377,21.44,91,20,2.84,ZA,1741059148
488,kalengwa,-13.4659,25.0027,16.58,98,100,1.09,ZM,1741059188
489,lahij,13.1667,44.5833,20.01,86,2,2.63,YE,1741059190
490,oranjemund,-28.55,16.4333,17.59,85,83,1.89,NA,1741059191
491,colonia menno,-22.3667,-59.8167,26.41,52,1,3.72,PY,1741059193
492,katabu,-4.9333,122.5167,30.44,71,95,0.27,ID,1741059194
493,bechar,31.6167,-2.2167,17.18,51,40,4.12,DZ,1741059195
494,yigo village,13.5361,144.8886,29.62,70,100,9.26,GU,1741059198
495,okhotsk,59.3833,143.3,-17.3,69,2,7.56,RU,1741059199
496,carloforte,39.145,8.3058,11.9,84,100,6.28,IT,1741059200
497,dabakala,8.3667,-4.4333,26.39,76,35,3.09,CI,1741059201
498,hinis,39.3606,41.7022,-6.66,97,100,0.96,TR,1741059202
499,garachico,28.7781,-17.7646,14.06,77,75,6.69,ES,1741059204
500,kailua-kona,19.6406,-155.9956,26.98,67,100,3.6,US,1741059021
501,antsiranana,-12.2787,49.2917,25.85,87,53,1.21,MG,1741059206
502,new glasgow,45.5834,-62.6486,-9.12,78,45,2.36,CA,1741059207
503,santa elena de uairen,4.6167,-61.1333,22.67,63,100,2.03,VE,1741059209
504,mujiayingzi,42.1167,118.7833,0.11,20,100,2.04,CN,1741059210
505,coracora,-15.0333,-73.7833,10.96,92,100,1.59,PE,1741059211
506,noshiro,40.2039,140.0242,1.46,48,100,2.47,JP,1741059212
507,piti village,13.4626,144.6933,30.49,73,75,9.26,GU,1741059215
508,ta`u,-14.2336,-169.5144,27.62,76,100,4.52,AS,1741059216
509,sao geraldo do araguaia,-6.4006,-48.555,22.4,96,100,1.09,BR,1741059217
510,khenifra,32.9333,-5.6667,8.09,68,87,1.6,MA,1741058962
511,ad douiem,14.0012,32.3116,22.05,16,5,4.68,SD,1741059219
512,rabaul,-4.1967,152.1721,28.84,70,71,2.65,PG,1741059221
513,ballesteros,18.4126,121.5152,29.02,65,6,3.06,PH,1741059223
514,bandar lampung,-5.4254,105.258,26.85,87,100,0.59,ID,1741059224
515,masterton,-40.9597,175.6575,14.58,97,100,3.6,NZ,1741059226
516,cururupu,-1.8283,-44.8683,22.25,100,97,0.19,BR,1741059227
517,kaohsiung,22.6163,120.3133,28.97,70,75,4.63,TW,1741058572
518,lubbock,33.6001,-101.8338,19.14,7,0,11.83,US,1741058659
519,selfoss,63.9331,-20.9971,6.69,91,100,15.77,IS,1741059231
520,kerikeri,-35.2268,173.9474,23.01,46,100,1.51,NZ,1741059232
521,alotau,-10.3069,150.4462,31.77,58,100,2.83,PG,1741059233
522,bienenbuttel,53.1416,10.4868,0.88,83,100,2.23,DE,1741059234
523,ponta delgada,37.7333,-25.6667,13.4,76,20,2.06,PT,1741059235
524,gargalianoi,37.0667,21.6333,6.58,67,58,3.35,GR,1741059237
525,turaif,31.6725,38.6637,9.14,25,0,6.17,SA,1741059238
526,kilindoni,-7.9139,39.6668,27.09,72,93,1.9,TZ,1741059239
527,conduaga,8.862,117.4893,31.26,60,70,2.82,PH,1741059241
528,saint-laurent-du-maroni,5.5039,-54.0289,22.27,99,46,0.8,GF,1741059036
529,manismata,-2.4667,111.0333,33.66,53,86,0.52,ID,1741059244
530,port macquarie,-31.4333,152.9167,27.82,70,98,2.68,AU,1741059245
531,sefrou,33.8319,-4.828,10.53,82,75,2.06,MA,1741059246
532,piton saint-leu,-21.2196,55.3151,25.06,65,20,2.57,RE,1741059247
533,colonia,50.9333,6.95,1.64,83,0,2.06,DE,1741058987
534,chokwe,-24.5333,32.9833,21.32,93,47,1.87,MZ,1741059250
535,kyzyl-mazhalyk,51.1333,90.6,-16.73,96,50,0.92,RU,1741059251
536,jiuquan,39.7432,98.5174,3.92,49,4,3.25,CN,1741059252
537,rocha,-34.4833,-54.3333,21.64,95,0,1.97,UY,1741059088
538,madalena,41.2162,-8.3345,12.32,94,84,2.21,PT,1741059255
539,tsengel,49.4783,100.8894,-4.7,43,0,2.04,MN,1741059256
540,larino,41.8055,14.9193,1.76,79,0,2.4,IT,1741059257
541,myitkyina,25.3833,97.4,28.66,31,0,0.65,MM,1741059258
542,nadi,-17.8,177.4167,30.0,70,40,7.2,FJ,1741059260
543,pulgaon,20.7333,78.3333,29.3,21,42,2.22,IN,1741059261
544,pijijiapan,15.7011,-93.23,23.64,83,1,1.89,MX,1741059262
545,antofagasta,-23.65,-70.4,17.6,82,67,1.85,CL,1741059263
546,plainview,40.7765,-73.4673,1.41,71,0,2.06,US,1741059002
547,harper,4.375,-7.7169,26.22,88,98,3.37,LR,1741059266
548,ingeniero jacobacci,-41.3427,-69.5448,12.43,51,11,4.04,AR,1741059267
549,eraan,9.0629,117.7016,32.39,57,59,1.7,PH,1741059268
550,labrador city,52.9463,-66.9114,-17.05,51,100,3.09,CA,1741059014
551,iacu,-12.7672,-40.2117,21.22,89,48,0.84,BR,1741059270
552,bondo,3.8146,23.6866,23.14,44,77,0.73,CD,1741059272
553,natal,-5.795,-35.2094,25.12,94,40,3.6,BR,1741058682
554,weno,7.4515,151.8468,30.97,70,75,4.63,FM,1741059275
555,mitu,1.1983,-70.1733,22.78,97,100,0.76,CO,1741059277
556,boguchany,58.3814,97.4531,-5.53,89,100,1.92,RU,1741059278
557,el paraiso,13.8667,-86.55,19.07,81,2,1.75,HN,1741059279
558,saudarkrokur,65.7461,-19.6394,-0.95,92,100,5.05,IS,1741059280
559,howard springs,-12.497,131.047,31.95,47,50,2.99,AU,1741059281
560,chashniki,54.8569,29.1607,2.63,79,100,9.03,BY,1741059283
561,da nang,16.0678,108.2208,29.99,70,20,0.51,VN,1741059284
562,coquimbo,-29.9533,-71.3436,15.85,94,0,2.57,CL,1741059285
563,el obeid,13.1842,30.2167,19.77,12,1,4.34,SD,1741059286
564,shakawe,-18.3667,21.85,19.39,91,89,1.92,BW,1741059287
565,mahibadhoo,3.7833,72.9667,27.76,73,36,2.75,MV,1741059289
566,garden city,42.3256,-83.331,2.97,63,100,4.63,US,1741059121
567,charles city,43.0664,-92.6724,9.43,68,100,5.66,US,1741059291
568,conde,-7.2597,-34.9075,23.7,100,75,3.6,BR,1741059293
569,lysyye gory,51.5506,44.8414,-3.76,95,100,5.4,RU,1741059294
570,labuan bajo,-8.4964,119.8877,29.71,72,98,2.48,ID,1741059295
571,yanykurgan,43.915,67.2481,-3.65,70,89,3.74,KZ,1741059296
572,kerema,-7.9631,145.7785,29.28,72,99,4.5,PG,1741059297
573,balaklava,44.5,33.6,1.88,58,77,1.77,UA,1741059299
574,svetlyy,54.675,20.1347,5.55,83,37,9.58,RU,1741059300
575,kuta,-8.7233,115.1723,29.97,89,20,6.17,ID,1741059242
576,nuuk,64.1835,-51.7216,-12.66,85,84,13.38,GL,1741059005
